[
  {
    "name": "올리브영 명동 타운 (Myeongdong Global)",
    "address": "서울특별시 중구 명동길 53 1–2층",
    "lat": 37.5649,
    "lng": 126.9855
  },
  {
    "name": "올리브영 시청역점",
    "address": "서울특별시 중구 세종대로16길 1 1층",
    "lat": 37.5658,
    "lng": 126.9753
  },
  {
    "name": "올리브영 명동역점",
    "address": "서울특별시 중구 퇴계로 127 1층",
    "lat": 37.5610,
    "lng": 126.9862
  },
  {
    "name": "올리브영 종로YBM점",
    "address": "서울특별시 종로구 종로 104",
    "lat": 37.5699,
    "lng": 126.9865
  },
  {
    "name": "올리브영 성수역점",
    "address": "서울특별시 성동구 아차산로 91",
    "lat": 37.5445,
    "lng": 127.0564
  },
  {
    "name": "올리브영 삼성점",
    "address": "서울특별시 강남구 테헤란로108길 22",
    "lat": 37.5088,
    "lng": 127.0616
  },
  {
    "name": "올리브영 청담사거리점",
    "address": "서울특별시 강남구 도산대로89길 8",
    "lat": 37.5247,
    "lng": 127.0415
  },
  {
    "name": "올리브영 남역삼점",
    "address": "서울특별시 강남구 논현로 318",
    "lat": 37.4968,
    "lng": 127.0319
  },
  {
    "name": "올리브영 석촌호수로점",
    "address": "서울특별시 송파구 석촌호수로 88 1층",
    "lat": 37.5065,
    "lng": 127.1069
  },
  {
    "name": "올리브영 구파발역점",
    "address": "서울특별시 은평구 진관2로 12",
    "lat": 37.6368,
    "lng": 126.9188
  },
  {
    "name": "올리브영 경희대점",
    "address": "서울특별시 동대문구 경희대로 2",
    "lat": 37.5946,
    "lng": 127.0525
  },
  {
    "name": "올리브영 광운대역점",
    "address": "서울특별시 노원구 석계로 102 1층 2호",
    "lat": 37.6230,
    "lng": 127.0618
  },
  {
    "name": "올리브영 녹두거리점",
    "address": "서울특별시 관악구 신림로 127 1층",
    "lat": 37.4826,
    "lng": 126.9309
  },
  {
    "name": "올리브영 문래점",
    "address": "서울특별시 영등포구 선유로 63 1층",
    "lat": 37.5172,
    "lng": 126.8950
  },
  {
    "name": "올리브영 길동역점",
    "address": "서울특별시 강동구 양재대로 1481 1층",
    "lat": 37.5352,
    "lng": 127.1427
  }
]
